[
{"name":"Aberdeen, Scotland", "coordinates":[-2.15,57.15]},
{"name":"Adelaide, Australia", "coordinates":[138.6,-34.9166666667]},
{"name":"Algiers, Algeria", "coordinates":[3.0,36.8333333333]},
{"name":"Amsterdam, Netherlands", "coordinates":[4.88333333333,52.3666666667]},
{"name":"Ankara, Turkey", "coordinates":[32.9166666667,39.9166666667]},
{"name":"Asunción, Paraguay", "coordinates":[-57.6666666667,-25.25]},
{"name":"Athens, Greece", "coordinates":[23.7166666667,37.9666666667]},
{"name":"Auckland, New Zealand", "coordinates":[174.75,-36.8666666667]},
{"name":"Bangkok, Thailand", "coordinates":[100.5,13.75]},
{"name":"Barcelona, Spain", "coordinates":[2.15,41.3833333333]},
{"name":"Beijing, China", "coordinates":[116.416666667,39.9166666667]},
{"name":"Belém, Brazil", "coordinates":[-48.4833333333,-1.46666666667]},
{"name":"Belfast, Northern Ireland", "coordinates":[-5.93333333333,54.6166666667]},
{"name":"Belgrade, Serbia", "coordinates":[20.5333333333,44.8666666667]},
{"name":"Berlin, Germany", "coordinates":[13.4166666667,52.5]},
{"name":"Birmingham, England", "coordinates":[-1.91666666667,52.4166666667]},
{"name":"Bogotá, Colombia", "coordinates":[-74.25,4.53333333333]},
{"name":"Bombay, India", "coordinates":[72.8,19.0]},
{"name":"Bordeaux, France", "coordinates":[-0.516666666667,44.8333333333]},
{"name":"Bremen, Germany", "coordinates":[8.81666666667,53.0833333333]},
{"name":"Brisbane, Australia", "coordinates":[153.133333333,-27.4833333333]},
{"name":"Bristol, England", "coordinates":[-2.58333333333,51.4666666667]},
{"name":"Brussels, Belgium", "coordinates":[4.36666666667,50.8666666667]},
{"name":"Bucharest, Romania", "coordinates":[26.1166666667,44.4166666667]},
{"name":"Budapest, Hungary", "coordinates":[19.0833333333,47.5]},
{"name":"Buenos Aires, Argentina", "coordinates":[-58.3666666667,-34.5833333333]},
{"name":"Cairo, Egypt", "coordinates":[31.35,30.0333333333]},
{"name":"Calcutta, India", "coordinates":[88.4,22.5666666667]},
{"name":"Canton, China", "coordinates":[113.25,23.1166666667]},
{"name":"Cape Town, South Africa", "coordinates":[18.3666666667,-33.9166666667]},
{"name":"Caracas, Venezuela", "coordinates":[-67.0333333333,10.4666666667]},
{"name":"Cayenne, French Guiana", "coordinates":[-52.3,4.81666666667]},
{"name":"Chihuahua, Mexico", "coordinates":[-106.083333333,28.6166666667]},
{"name":"Chongqing, China", "coordinates":[106.566666667,29.7666666667]},
{"name":"Copenhagen, Denmark", "coordinates":[12.5666666667,55.6666666667]},
{"name":"Córdoba, Argentina", "coordinates":[-64.1666666667,-31.4666666667]},
{"name":"Dakar, Senegal", "coordinates":[-17.4666666667,14.6666666667]},
{"name":"Darwin, Australia", "coordinates":[130.85,-12.4666666667]},
{"name":"Djibouti, Djibouti", "coordinates":[43.05,11.5]},
{"name":"Dublin, Ireland", "coordinates":[-6.25,53.3333333333]},
{"name":"Durban, South Africa", "coordinates":[30.8833333333,-29.8833333333]},
{"name":"Edinburgh, Scotland", "coordinates":[-3.16666666667,55.9166666667]},
{"name":"Frankfurt, Germany", "coordinates":[8.68333333333,50.1166666667]},
{"name":"Georgetown, Guyana", "coordinates":[-58.25,6.75]},
{"name":"Glasgow, Scotland", "coordinates":[-4.25,55.8333333333]},
{"name":"Guatemala City, Guatemala", "coordinates":[-90.5166666667,14.6166666667]},
{"name":"Guayaquil, Ecuador", "coordinates":[-79.9333333333,-2.16666666667]},
{"name":"Hamburg, Germany", "coordinates":[10.0333333333,53.55]},
{"name":"Hammerfest, Norway", "coordinates":[23.6333333333,70.6333333333]},
{"name":"Havana, Cuba", "coordinates":[-82.3833333333,23.1333333333]},
{"name":"Helsinki, Finland", "coordinates":[25.0,60.1666666667]},
{"name":"Hobart, Tasmania", "coordinates":[147.316666667,-42.8666666667]},
{"name":"Hong Kong, China", "coordinates":[114.183333333,22.3333333333]},
{"name":"Iquique, Chile", "coordinates":[-70.1166666667,-20.1666666667]},
{"name":"Irkutsk, Russia", "coordinates":[104.333333333,52.5]},
{"name":"Jakarta, Indonesia", "coordinates":[106.8,-6.26666666667]},
{"name":"Johannesburg, South Africa", "coordinates":[28.0666666667,-26.2]},
{"name":"Kingston, Jamaica", "coordinates":[-76.8166666667,17.9833333333]},
{"name":"Kinshasa, Congo", "coordinates":[15.2833333333,-4.3]},
{"name":"Kuala Lumpur, Malaysia", "coordinates":[101.7,3.13333333333]},
{"name":"La Paz, Bolivia", "coordinates":[-68.3666666667,-16.45]},
{"name":"Leeds, England", "coordinates":[-1.5,53.75]},
{"name":"Lima, Peru", "coordinates":[-77.0333333333,-12.0]},
{"name":"Lisbon, Portugal", "coordinates":[-9.15,38.7333333333]},
{"name":"Liverpool, England", "coordinates":[-3.0,53.4166666667]},
{"name":"London, England", "coordinates":[-0.0833333333333,51.5333333333]},
{"name":"Lyons, France", "coordinates":[4.83333333333,45.75]},
{"name":"Madrid, Spain", "coordinates":[-3.7,40.4333333333]},
{"name":"Manchester, England", "coordinates":[-2.25,53.5]},
{"name":"Manila, Philippines", "coordinates":[120.95,14.5833333333]},
{"name":"Marseilles, France", "coordinates":[5.33333333333,43.3333333333]},
{"name":"Mazatlán, Mexico", "coordinates":[-106.416666667,23.2]},
{"name":"Mecca, Saudi Arabia", "coordinates":[39.75,21.4833333333]},
{"name":"Melbourne, Australia", "coordinates":[144.966666667,-37.7833333333]},
{"name":"Mexico City, Mexico", "coordinates":[-99.1166666667,19.4333333333]},
{"name":"Milan, Italy", "coordinates":[9.16666666667,45.45]},
{"name":"Montevideo, Uruguay", "coordinates":[-56.1666666667,-34.8833333333]},
{"name":"Moscow, Russia", "coordinates":[37.6,55.75]},
{"name":"Munich, Germany", "coordinates":[11.5833333333,48.1333333333]},
{"name":"Nagasaki, Japan", "coordinates":[129.95,32.8]},
{"name":"Nagoya, Japan", "coordinates":[136.933333333,35.1166666667]},
{"name":"Nairobi, Kenya", "coordinates":[36.9166666667,-1.41666666667]},
{"name":"Nanjing (Nanking), China", "coordinates":[118.883333333,32.05]},
{"name":"Naples, Italy", "coordinates":[14.25,40.8333333333]},
{"name":"New Delhi, India", "coordinates":[77.2,28.5833333333]},
{"name":"Newcastle-on-Tyne, England", "coordinates":[-1.61666666667,54.9666666667]},
{"name":"Odessa, Ukraine", "coordinates":[30.8,46.45]},
{"name":"Osaka, Japan", "coordinates":[135.5,34.5333333333]},
{"name":"Oslo, Norway", "coordinates":[10.7,59.95]},
{"name":"Panama City, Panama", "coordinates":[-79.5333333333,8.96666666667]},
{"name":"Paramaribo, Suriname", "coordinates":[-55.25,5.75]},
{"name":"Paris, France", "coordinates":[2.33333333333,48.8]},
{"name":"Perth, Australia", "coordinates":[115.866666667,-31.95]},
{"name":"Plymouth, England", "coordinates":[-4.08333333333,50.4166666667]},
{"name":"Port Moresby, Papua New Guinea", "coordinates":[147.133333333,-9.41666666667]},
{"name":"Prague, Czech Republic", "coordinates":[14.4333333333,50.0833333333]},
{"name":"Rangoon, Myanmar", "coordinates":[96.0,16.8333333333]},
{"name":"Reykjavík, Iceland", "coordinates":[-21.9666666667,64.0666666667]},
{"name":"Rio de Janeiro, Brazil", "coordinates":[-43.2,-22.95]},
{"name":"Rome, Italy", "coordinates":[12.45,41.9]},
{"name":"Salvador, Brazil", "coordinates":[-38.45,-12.9333333333]},
{"name":"Santiago, Chile", "coordinates":[-70.75,-33.4666666667]},
{"name":"St. Petersburg, Russia", "coordinates":[30.3,59.9333333333]},
{"name":"São Paulo, Brazil", "coordinates":[-46.5166666667,-23.5166666667]},
{"name":"Shanghai, China", "coordinates":[121.466666667,31.1666666667]},
{"name":"Singapore, Singapore", "coordinates":[103.916666667,1.23333333333]},
{"name":"Sofia, Bulgaria", "coordinates":[23.3333333333,42.6666666667]},
{"name":"Stockholm, Sweden", "coordinates":[18.05,59.2833333333]},
{"name":"Sydney, Australia", "coordinates":[151.0,-34.0]},
{"name":"Tananarive, Madagascar", "coordinates":[47.55,-18.8333333333]},
{"name":"Teheran, Iran", "coordinates":[51.75,35.75]},
{"name":"Tokyo, Japan", "coordinates":[139.75,35.6666666667]},
{"name":"Tripoli, Libya", "coordinates":[13.2,32.95]},
{"name":"Venice, Italy", "coordinates":[12.3333333333,45.4333333333]},
{"name":"Veracruz, Mexico", "coordinates":[-96.1666666667,19.1666666667]},
{"name":"Vienna, Austria", "coordinates":[16.3333333333,48.2333333333]},
{"name":"Vladivostok, Russia", "coordinates":[132.0,43.1666666667]},
{"name":"Warsaw, Poland", "coordinates":[21.0,52.2333333333]},
{"name":"Wellington, New Zealand", "coordinates":[174.783333333,-41.2833333333]},
{"name":"Zürich, Switzerland", "coordinates":[8.51666666667,47.35]}
]
